{"type": "FeatureCollection", "features": [{"type": "Feature", "geometry": {"type": "Point", "coordinates": [13.3432702, 52.5991357]}, "properties": {"name": "Eichhorster Weg 44", "street": "Eichhorster Weg 44", "zip-code": 13435, "city": "Berlin", "lat": 52.5991357, "lon": 13.3432702}}, {"type": "Feature", "geometry": {"type": "Point", "coordinates": [13.338929, 52.5961888]}, "properties": {"name": "Finsterwalder Straße 1", "street": "Finsterwalder Straße 1", "zip-code": 13435, "city": "Berlin", "lat": 52.5961888, "lon": 13.338929}}, {"type": "Feature", "geometry": {"type": "Point", "coordinates": [13.3614898, 52.5966655]}, "properties": {"name": "Wilhelmsruher Damm 97", "street": "Wilhelmsruher Damm 97", "zip-code": 13439, "city": "Berlin", "lat": 52.5966655, "lon": 13.3614898}}, {"type": "Feature", "geometry": {"type": "Point", "coordinates": [13.3553764, 52.5962782]}, "properties": {"name": "Wilhelmsruher Damm 127", "street": "Wilhelmsruher Damm 127", "zip-code": 13439, "city": "Berlin", "lat": 52.5962782, "lon": 13.3553764}}, {"type": "Feature", "geometry": {"type": "Point", "coordinates": [13.3504567, 52.5960522]}, "properties": {"name": "Wilhelmsruher Damm 173", "street": "Wilhelmsruher Damm 173", "zip-code": 13439, "city": "Berlin", "lat": 52.5960522, "lon": 13.3504567}}, {"type": "Feature", "geometry": {"type": "Point", "coordinates": [13.3581196, 52.5991473]}, "properties": {"name": "Senftenberger Ring 12", "street": "Senftenberger Ring 12", "zip-code": 13439, "city": "Berlin", "lat": 52.5991473, "lon": 13.3581196}}, {"type": "Feature", "geometry": {"type": "Point", "coordinates": [13.3633862, 52.6030663]}, "properties": {"name": "Senftenberger Ring 34a", "street": "Senftenberger Ring 34A", "zip-code": 13435, "city": "Berlin", "lat": 52.6030663, "lon": 13.3633862}}, {"type": "Feature", "geometry": {"type": "Point", "coordinates": [13.3616446, 52.6053222]}, "properties": {"name": "Senftenberger Ring 40a", "street": "Senftenberger Ring 40A", "zip-code": 13435, "city": "Berlin", "lat": 52.6053222, "lon": 13.3616446}}, {"type": "Feature", "geometry": {"type": "Point", "coordinates": [13.356653032514169, 52.606315]}, "properties": {"name": "Senftenberger Ring 42n", "street": "Senftenberger Ring 42N", "zip-code": 13435, "city": "Berlin", "lat": 52.606315, "lon": 13.356653032514169}}, {"type": "Feature", "geometry": {"type": "Point", "coordinates": [13.353609, 52.6025073]}, "properties": {"name": "Senftenberger Ring 95", "street": "Senftenberger Ring 95", "zip-code": 13435, "city": "Berlin", "lat": 52.6025073, "lon": 13.353609}}, {"type": "Feature", "geometry": {"type": "Point", "coordinates": [13.3612207, 52.5936328]}, "properties": {"name": "Dannenwalder Weg 184", "street": "Dannenwalder Weg 184", "zip-code": 13439, "city": "Berlin", "lat": 52.5936328, "lon": 13.3612207}}, {"type": "Feature", "geometry": {"type": "Point", "coordinates": [13.3387705, 52.5985156]}, "properties": {"name": "Finsterwalder Straße 33", "street": "Finsterwalder Straße 33", "zip-code": 13435, "city": "Berlin", "lat": 52.5985156, "lon": 13.3387705}}]}